{
    "bares": [
        {
            "nombre":"Txirrintxa",
            "direccion":"C. de la Estafeta, 87, 31001 Pamplona, Navarra",
            "descripcion":"Jamones colgados decoran esta clásica taberna con cerveza de elaboración propia más tapas y raciones.",
            "img":"bares/txirrintxa.jpg",
            "latitud":"42.8161644692592",
            "longitud":"-1.6410433152613682"
        },
        {
            "nombre":"Iruñazarra",
            "direccion":"C. Mercaderes, 15, 31001 Pamplona, Navarra",
            "descripcion":"Tapas, carne y pescado en un restaurante ecléctico con paredes de ladrillo visto y pinchos expuestos en la barra",
            "img":"bares/irunazarra.jpg",
            "latitud":"42.8185096523976",
            "longitud":"-1.6433136860841389"
        },
        {
            "nombre":"Bar Cervecería la Estafeta",
            "direccion":"C. de la Estafeta, 54, 31001 Pamplona, Navarra",
            "descripcion":"Pintxos tradicionales en taberna rústica con vigas vistas y arcos más azulejos con imágenes de Pamplona.",
            "img":"bares/laEstafeta.jpg",
            "latitud":"42.816803011851015",
            "longitud":"-1.6415310049354057"
        },
        {
            "nombre":"Bar Fitero Taberna",
            "direccion":"C. de la Estafeta, 58, 31001 Pamplona, Navarra",
            "descripcion":"Alta cocina navarra en miniatura y fritos en clásico bar de ambiente taurino y familiar abierto en 1956.",
            "img":"bares/barFitero.jpg",
            "latitud":"42.81661440440041",
            "longitud":"-1.6412242623944293"
        },
        {
            "nombre":"Bar GAUCHO Taberna",
            "direccion":"C. Espoz y Mina, 7, 31002 Pamplona, Navarra",
            "descripcion":"Bar clásico famoso por sus pinchos, como el buñuelo de bacalao y las carrilleras, además de frituras y vino.",
            "img":"bares/gaucho.jpg",
            "latitud":"42.81628315774462",
            "longitud":"-1.6416644225442276"
        }
    ],
    "hoteles":[
        {
            "nombre":"Gran Hotel la Perla",
            "direccion":"Plaza del castillo, nº1, Pamplona, Navarra",
            "descripcion":"Este hotel refinado, ubicado en un edificio elegante del siglo XIX en la esquina de la plaza del Castillo, se encuentra a 4 minutos a pie de la catedral de Pamplona y a 2 km de la estación de trenes de Pamplona.",
            "img":"hoteles/laPerla.jpg",
            "latitud":"42.81787839422043",
            "longitud":"-1.64250085270346"
        },
        {
            "nombre":"Hotel Tres Reyes",
            "direccion":"C. Taconera, 1, 31001 Pamplona, Navarra",
            "descripcion":"Hotel elegante con habitaciones modernas, restaurante refinado, bar en el vestíbulo, gimnasio y piscina.",
            "img":"hoteles/tresReyes.jpg",
            "latitud":"42.81596271002504",
            "longitud":"-1.6492094751000241"
        },
        {
            "nombre":"Castillo de Gorraiz Hotel & Spa",
            "direccion":"Av. de Egüés, 78, 31620 Gorráiz, Navarra",
            "descripcion":"Hotel sofisticado con un campo de golf de 18 hoyos, spa, vistas al campo y restaurante.",
            "img":"hoteles/gorraiz.jpg",
            "latitud":"42.82179196524213",
            "longitud":"-1.5792739462642351"
        },
        {
            "nombre":"Hotel Alma de Pamplona",
            "direccion":"C. Beloso Bajo, 11, 31006 Pamplona, Navarra",
            "descripcion":"Hotel moderno con suites funcionales, un restaurante de moda, bar y piscina cubierta.",
            "img":"hoteles/almaPamplona.jpg",
            "latitud":"42.819957348111195",
            "longitud":"-1.623773486743757"
        },
        {
            "nombre":"Hotel Alda Centro Pamplona",
            "direccion":"Pl. Virgen de la O, 7, 31001 Pamplona, Navarra",
            "descripcion":"Este sencillo hotel regentado por una familia se encuentra en el centro de Pamplona, junto a las antiguas murallas de la ciudad, a 6 minutos a pie del Museo de Navarra y a 11 minutos a pie de la catedral de Pamplona.",
            "img":"hoteles/aldaCentro.jpg",
            "latitud":"42.8182829159807",
            "longitud":"-1.6498999153398457"
        },
        {
            "nombre":"Hotel Avenida-Pamplona",
            "direccion":"Av. de Zaragoza, 5, 31003 Pamplona, Navarra",
            "descripcion":"Este hotel, decorado de modo informal con detalles elegantes, se encuentra en el centro urbano, a 5 minutos a pie del casco antiguo. El hotel tiene un restaurante japonés refinado y ofrece desayuno y aparcamiento por un suplemento",
            "img":"hoteles/avenida.jpg",
            "latitud":"42.81231619461379",
            "longitud":"-1.64272692341072"
        }
    ],
    "restaurantes":[
        {
            "nombre":"La Mar Salada",
            "direccion":"C. de Leyre, 12, 31002 Pamplona, Navarra",
            "descripcion":"Originales platos de pescado, marisco, carne y arroz en un moderno restaurante en tonos de madera clara.",
            "img":"restaurantes/laMarSalada.jpg",
            "latitud":"42.81787839422043",
            "longitud":"-1.64250085270346"
        },
        {
            "nombre":"Chez Belagua",
            "direccion":"C. de la Estafeta, 49, 31001 Pamplona, Navarra",
            "descripcion":"Pinchos, menús y helados en una desenfadada tasca con kupelas y una gran lámpara hecha con botellas de sidra.",
            "img":"restaurantes/chezBelagua.jpg",
            "latitud":"42.81722699107794",
            "longitud":"-1.641793123856665"
        },
        {
            "nombre":"Restaurante Alma de Pamplona",
            "direccion":"C. Beloso Bajo, 11, 31006 Pamplona, Navarra",
            "descripcion":"Pinchos, menús y helados en una desenfadada tasca con kupelas y una gran lámpara hecha con botellas de sidra.",
            "img":"restaurantes/alma.jpg",
            "latitud":"42.81722699107794",
            "longitud":"-1.641793123856665"
        },
        {
            "nombre":"Restaurante La Biblioteca",
            "direccion":"C. Beloso Bajo, 11, 31006 Pamplona, Navarra",
            "descripcion":"Restaurante sofisticado con comida elaborada, un ambiente relajante y personal muy atento y amable.",
            "img":"restaurantes/laBiblioteca.jpg",
            "latitud":"42.8197319738969",
            "longitud":"-1.623763358206201"
        },
        {
            "nombre":"La Olla",
            "direccion":"Av. Roncesvalles, 2, 31002 Pamplona, Navarra",
            "descripcion":"Recetas navarras a base de productos de temporada en un acogedor local, decorado con azulejería, con terraza.",
            "img":"restaurantes/laOlla.jpg",
            "latitud":"42.81547008133764",
            "longitud":"-1.6407511883144281"
        },
        {
            "nombre":"Restaurante Anttonenea",
            "direccion":"C. de San Antón, 48, 31001 Pamplona, Navarra",
            "descripcion":"Platos de cocina tradicional, como paletilla de cordero y pulpo a la brasa, en un restaurante sencillo con menú degustación.",
            "img":"restaurantes/anttonenea.jpg",
            "latitud":"42.81615563544658",
            "longitud":"-1.646855844179113"
        },
        {
            "nombre":"La Fogoneta Culibar",
            "direccion":" C. de Francisco Bergamin, 31, 31003 Pamplona",
            "descripcion":"Platos de cocina tradicional, como alubias, migas, en un restaurante con buen decorado y ambiente acogedor.",
            "img":"restaurantes/fogoneta.jpg",
            "latitud":"42.81074983479285",
            "longitud":"-1.6389326306428773"
        }
    ],
    "supermercados":[
        {
            "nombre":"BM Supermercados",
            "direccion":"C. de Tafalla, 13, 15, 31004 Pamplona, Navarra",
            "descripcion":"Supermercado BM en Segundo Ensanche, Pamplona",
            "img":"supermercados/bm_ensanche.jpg",
            "latitud":"42.81279800218235",
            "longitud":"-1.6359027834976994"
        },
        {
            "nombre":"Mercadona",
            "direccion":"Pl. Leonor de Trastámara, s/n, 31007 Pamplona",
            "descripcion":"Mercadona cerca de La Ciudadela, Pamplona",
            "img":"supermercados/mercadona_iturrama.jpg",
            "latitud":"42.81000349151309",
            "longitud":"-1.6541682695569078"
        },
        {
            "nombre":"Supermercados Dia",
            "direccion":"Av. de Sancho el Fuerte, 26, 31008 Pamplona, Navarra",
            "descripcion":"Alimentación, bebidas, droguería y perfumería en supermercados con productos propios y de primeras marcas.",
            "img":"supermercados/dia.jpg",
            "latitud":"42.812269261356455",
            "longitud":"-1.6588377322112466"
        }
    ]
}